,name,formatted_address,rating,types,lat,lng,id,place_id
0,Victorian Gardens Amusement Park,"New York, NY 10019, USA",4.2,"amusement_park, point_of_interest, establishment",40.76777939999999,-73.97446630000002,3a87c22d2097ff671c680532bcf99d5665c2f79d,ChIJbcr95-1YwokRuBMO1wMVL50
1,Deno's Wonder Wheel Amusement Park,"3059 W 12th St, Brooklyn, NY 11224, USA",4.4,"amusement_park, point_of_interest, establishment",40.57433839999999,-73.9781885,90b19ff46230858b415a48c4511e17c216d0caf5,ChIJq2dBUzREwokRugdGFafrtIw
2,Flushing Meadows Carousel,"111th St and 55th Ave, Corona, NY 11368, USA",4.7,"point_of_interest, establishment",40.7432968,-73.8492784,eaa944e92c221b8e6a423b6173fbe59cbedf72ea,ChIJmbUpINFfwokRIg4fft6_jqI
3,Fantasy Forest Amusement Park,"5351 111th St, Corona, NY 11368, USA",4.2,"amusement_park, point_of_interest, establishment",40.74366,-73.849958,f7c2c1dd5e8a13c2d2d4ca828d0f565bba33f212,ChIJMU3Q4tBfwokRhVWJiwGK_Yw
4,The Cyclone Roller Coaster Coney Island NY,"1000 Surf Ave, Brooklyn, NY 11224, USA",4.5,"point_of_interest, establishment",40.5745232,-73.9776108,b7af42fe75abcc334b98175ee7312163a8091999,ChIJa2SY6zVEwokRqbYGuCny2So
5,Scream Zone at Luna Park,"1295 Riegelmann Boardwalk, Brooklyn, NY 11224, USA",4.4,"amusement_park, point_of_interest, establishment",40.573933,-73.9803675,bc829576e14c8b42074bd5199bc1a56a5cd38384,ChIJX-Ps_jREwokRiOsrB0JnZTM
6,Adventurers Amusement Park,"1824 Shore Pkwy, Brooklyn, NY 11214, USA",4.0,"amusement_park, point_of_interest, establishment",40.5906694,-73.99469409999999,1399b4a298f5376d6639f7a7250f847b22aa7c81,ChIJsag5fa9FwokRZXAM9oijWfc
0,New York Aquarium,"602 Surf Ave, Brooklyn, NY 11224, USA",4.0,"aquarium, point_of_interest, establishment",40.5742632,-73.9748754,8d6c14b576144c082256cf33bcef201794d5fd78,ChIJcRMeDzZEwokR3NsXUDpO9UU
0,Pace Gallery,"32 E 57th St, New York, NY 10022, USA",4.8,"art_gallery, point_of_interest, establishment",40.761862,-73.972082,a79a4a8c0af1fdc350f8a79eb4955d65576ac0f3,ChIJFxXcxfpYwokR4SxqEQVpaLk
1,Luhring Augustine Gallery,"531 W 24th St, New York, NY 10011, USA",4.7,"art_gallery, point_of_interest, establishment",40.7492057,-74.0049504,27cb29e2c5bf3849cbfd0e1cdcdeeefcfbe6986b,ChIJwZCT7bdZwokRNx1YURTRbmM
2,The Metropolitan Museum of Art,"1000 5th Ave, New York, NY 10028, USA",4.8,"art_gallery, museum, point_of_interest, establishment",40.7794366,-73.963244,f732f202150af1f14ae8a057a1014ceea6b33fc4,ChIJb8Jg9pZYwokR-qHGtvSkLzs
3,Yancey Richardson,"525 W 22nd St, New York, NY 10011, USA",4.5,"art_gallery, point_of_interest, establishment",40.74761489999999,-74.0057547,73ea6246f9076b48c53ed7b69000806e769dac9b,ChIJe7AGCbhZwokRAFtmSbxzArY
4,Jeffrey Deitch,"18 Wooster St, New York, NY 10013, USA",5.0,"art_gallery, point_of_interest, establishment",40.721435,-74.003056,cbefae89e281127361feb41c454b78b564f7c306,ChIJdWA_r4tZwokRPgHkRNHAKog
5,Gavin Brown's enterprise,"291 Grand St, New York, NY 10002, USA",3.5,"art_gallery, point_of_interest, establishment",40.7174334,-73.992173,f3dd21a471de3196c01a6de89100f83fcee5ecb5,ChIJmZBlFO1ZwokRhPKLlzK7pzc
6,American Folk Art Museum,"2 Lincoln Square, New York, NY 10023, USA",4.2,"museum, point_of_interest, establishment",40.773207,-73.98138999999999,a9ffefef860f76e7fe7abc01b3ca90a35e06afba,ChIJEeD6FPVYwokRgs0ZbWMrrzk
7,Team Gallery,"83 Grand St, New York, NY 10013, USA",4.2,"art_gallery, point_of_interest, establishment",40.7216802,-74.0025587,18df8cdf1e4fc7ae191a547ff3a5104c53c353e0,ChIJK4dVuYtZwokRcYLi85TNuaM
8,Michael Werner Gallery,"4 E 77th St # 2, New York, NY 10075, USA",5.0,"art_gallery, point_of_interest, establishment",40.775242,-73.964254,cd2ae0adb281438c0ca24769d1f6f7d8d42b379a,ChIJX4_LaJRYwokRFRY0gPRav3I
9,Sean Kelly,"475 10th Ave, New York, NY 10018, USA",4.7,"art_gallery, point_of_interest, establishment",40.7560796,-73.9982615,eba3c1484e314612781eae06254065e014385b6d,ChIJWTV4jrZZwokRFYejsehrXyY
10,Anita Shapolsky Gallery,"152 E 65th St, New York, NY 10065, USA",4.0,"art_gallery, point_of_interest, establishment",40.7654055,-73.9645412,c5ab0aca297a7805d83a3d683e1e0f0d4ed7d2a6,ChIJXbDLOulYwokRSlIu2m790r8
11,Artists Space,"80 White St, New York, NY 10013, USA",4.1,"art_gallery, museum, point_of_interest, establishment",40.7178421,-74.0020559,29ea02dc3c3b0697c11cf0454b2a0c4cc57a0665,ChIJ0ZCpuItZwokRZoTuCB9Vjtg
12,Fischbach Gallery,"210 11th Ave Suite 801, New York, NY 10001, USA",0.0,"art_gallery, point_of_interest, establishment",40.7499366,-74.005949,db7cfaed8cf759767a774bb57080391e0d473925,ChIJsy_13LdZwokRIOr9lBXLY9Y
13,Sperone Westwater,"257 Bowery, New York, NY 10002, USA",4.6,"art_gallery, point_of_interest, establishment",40.72314799999999,-73.992583,997b4e445d2a09aa4a0db068f862ae40e0fa282e,ChIJoW8duIVZwokRDqKRPbNOM9E
14,Staley-Wise Gallery,"100 Crosby St #305, New York, NY 10012, USA",4.8,"art_gallery, point_of_interest, establishment",40.7240493,-73.99776849999999,8402f5af9d1f23f19127ce1c5ecdec632fb5e00c,ChIJcXGe4Y5ZwokRCR-Yzx1m-SE
15,Tanya Bonakdar Gallery,"521 W 21st St #1, New York, NY 10011, USA",4.4,"art_gallery, point_of_interest, establishment",40.747122,-74.006193,26386bcb104b7eb2b60c49666e72464c462a5d27,ChIJs5ukdLhZwokRR5fBgFl8K3E
16,Art Projects International,"434 Greenwich St, New York, NY 10013, USA",5.0,"art_gallery, point_of_interest, establishment",40.72271,-74.00979900000002,f83fdd977b3b2ff4c88d813e216ae0e26e54e890,ChIJTQikV_RZwokRv1Ufiev2Eoo
17,Woodward Gallery,"132A Eldridge St, New York, NY 10002, USA",4.8,"art_gallery, point_of_interest, establishment",40.7189134,-73.9914967,99659cfe636a56c4895f11ae01ea73a5531082e4,ChIJQSfDAIdZwokRruYOCAMp68Q
18,Talwar Gallery,"108 E 16th St #301, New York, NY 10003, USA",4.5,"art_gallery, point_of_interest, establishment",40.735522,-73.988784,5394fa8b17ef5d9dbbe90d6d374a2dd5d1a74d94,ChIJxROQUp9ZwokRHREc95HPxiM
19,Metro Pictures,"519 W 24th St, New York, NY 10011, USA",4.5,"art_gallery, point_of_interest, establishment",40.7489171,-74.0045717,83eae3a6ddc753d6095a1e07e5fb27ea6421b555,ChIJ2cJojbdZwokRJF3KrrBFnF0
20,Casey Kaplan Inc,"121 W 27th St, New York, NY 10001, USA",4.0,"art_gallery, point_of_interest, establishment",40.7461073,-73.99199569999999,b1bc1d43b363d4d58ff0f0896bf765f1f6f55dcf,ChIJt6X_dbhZwokRYfJrTeGlp6g
21,Ubu Gallery,"416 E 59th St, New York, NY 10022, USA",5.0,"art_gallery, museum, point_of_interest, establishment",40.7592599,-73.96114720000001,4c93e47e4ab7b4e1d032f01a79f4ba2a795782ea,ChIJNwg-C-dYwokR7pFow7mu9cc
22,SculptureCenter,"44-19 Purves St, Long Island City, NY 11101, USA",4.6,"museum, point_of_interest, establishment",40.7469373,-73.940835,ba73865214ceb74cee7e59de57330a0be9355471,ChIJg8J0MipZwokRO03w0rQvXJc
23,Smack Mellon,"92 Plymouth St, Brooklyn, NY 11201, USA",4.1,"art_gallery, point_of_interest, establishment",40.703791,-73.98974299999999,c9e0e353bbbb6105f8db2c9419d1e2d0610b3f1d,ChIJR2H3eTFawokRb0FeIuvN0jw
24,Swiss Institute,"38 St Marks Pl, New York, NY 10003, USA",4.4,"art_gallery, point_of_interest, establishment",40.7284172,-73.9875484,5463cde1f17dc9b0dc0ed19a1b57325b0717bcc8,ChIJK9SLWolZwokRfLobp8up_mg
25,Postmasters Gallery,"54 Franklin St, New York, NY 10013, USA",4.6,"art_gallery, point_of_interest, establishment",40.71729699999999,-74.002709,bb9d592671ec856f4b4e7351f3348ed2e7cb99ea,ChIJO7j_kiBawokR_ZYBzw_UkyA
26,Apexart,"291 Church St, New York, NY 10013, USA",5.0,"point_of_interest, establishment",40.7190458,-74.0044688,825d228c8bcffe3b4e877afc5b385307a3dc99c1,ChIJi1gQm4pZwokRZbGY348g_r8
27,Museum of Biblical Art,"1865 Broadway, New York, NY 10023, USA",3.3,"museum, point_of_interest, establishment",40.77027280000001,-73.982804,faef65b55a9796fd7c5701db21e34e987e41bb09,ChIJn-Ah-fVYwokRQSdL1eSJzdU
0,Resorts World Casino New York City,"110-00 Rockaway Blvd, Jamaica, NY 11420, USA",3.7,"casino, night_club, restaurant, point_of_interest, food, establishment",40.6728572,-73.832624,9cc2b1258bc46df79360d2fb9b4ada56feb19b93,ChIJIdDbQENnwokRbCypkvjzglk
1,Empire City Casino,"810 Yonkers Ave, Yonkers, NY 10704, USA",3.9,"casino, restaurant, point_of_interest, food, establishment",40.9193015,-73.8645107,e1e7f454ca178b366a75ae52d9011a575e247a91,ChIJh7tBHr7ywokR4hFTwLzlguk
2,紐約市雲頂世界賭場,"110-00 Rockaway Blvd, South Ozone Park, NY 11420, USA",3.4,"casino, point_of_interest, establishment",40.672473,-73.83285099999999,ed4b2f2a33f6d110aba102ea428770d3d6a7bfb0,ChIJtzOQqGdnwokRpO7AXGJCjnc
3,Ace & Jack Casino Theme Night Party Rentals NY NJ CT PA,"109 N Central Ave, Valley Stream, NY 11580, USA",4.9,"casino, point_of_interest, food, establishment",40.6705843,-73.708237,312736c2cb5593f36e5a1a50d151cf7e941cdf89,ChIJd_ukxHtkwokRRhu0GlALOgY
4,Big Deal Casino,"1 E 28th St, 6th floor, New York, NY 10016, United States",3.9,"point_of_interest, establishment",40.7446424,-73.9868048,c80f206dd472c36122647050c271a6b8b70fa798,ChIJ36JPOKZZwokRtqFVlZpq8k4
5,Online Casino New York,"1346 39th St, Brooklyn, NY 11218, USA",5.0,"casino, point_of_interest, establishment",40.639705,-73.985322,737fb7bcb22f0217ed1254df5acc9e838f6b7a5d,ChIJwVXsWDxbwokR5Ygbs0GgVNI
6,NYRA Bets,"110-00 Rockaway Blvd, South Richmond Hill, NY 11419, USA",4.2,"casino, point_of_interest, establishment",40.6715214,-73.83334119999999,ec00487020a945d829ca23d1c4274d3f2ca98e85,ChIJAa8A9U9nwokRm219Af30J4A
7,CAZZNY Events,"130 Jericho Turnpike, Floral Park, NY 11001, USA",5.0,"casino, point_of_interest, establishment",40.727825,-73.706374,e6c997f5b207eb9d8bd83930400dfcc3feb88aa6,ChIJe7tPPCMx6IkRWXNsVSqhJXg
8,New Yorc City Guggenheim Museum,"N Atlantic Ave, Ocean City, MD 21842, USA",5.0,"casino, point_of_interest, establishment",40.5602071,-73.99309199999999,bbbf119c9415fb5dd8f5eec7d149b847d5e387df,ChIJkZ00vNdFwokR3rqZdENC9Z0
9,Ace Deuce Casinos,"102 Woodcleft Ave #2, Freeport, NY 11520, USA",3.0,"casino, point_of_interest, food, establishment",40.6371607,-73.5827822,479626da760993df94ee8e61dd6ad35c9499e968,ChIJWyAGC8B7wokRVnxMJBl9-qI
10,Carib-Inn Tennis Club & Casino,"2830 Pitkin Ave, Brooklyn, NY 11208, USA",1.0,"lodging, point_of_interest, establishment",40.675759,-73.86769199999999,cb8570631fbff96017a35f935abfe242dd65797e,ChIJ0U2AQ75dwokRDYkz9MyoArc
11,Equestris,"110-00 Rockaway Blvd, Ozone Park, NY 11416, USA",0.0,"restaurant, point_of_interest, food, establishment",40.6728147,-73.83243279999999,577e234f431868cba2acdfe11340b139703e515f,ChIJy3d0-yNnwokRqjtXbx3Jtvs
12,Cozy 1br mins from CASINO JFK & NYC,"137-15 171st St, Jamaica, NY 11434, USA",1.0,"lodging, point_of_interest, establishment",40.672299,-73.769059,7256e438d9623a1f5217a3e0decca4c45b5db684,ChIJPXAb-rhmwokRA8gRTeZqgWU
13,1800 Casinos LLC,"8 Carriage Way, White Plains, NY 10605, USA",0.0,"casino, point_of_interest, establishment",40.996666,-73.736071,2405cc1ce7ff71a8bc5d7c9b80b84a745617aade,ChIJBUJLolKRwokRCIrIkXtAmAU
14,Palm Casino's USA,"366 N Broadway, Jericho, NY 11753, USA",2.3,"casino, point_of_interest, establishment",40.7818145,-73.5329445,45aea2b99e9127e9f64142e18e390f9720a0119d,ChIJed2A-haBwokRV7ehRoS-3SQ
0,The Metropolitan Museum of Art,"1000 5th Ave, New York, NY 10028, USA",4.8,"art_gallery, museum, point_of_interest, establishment",40.7794366,-73.963244,f732f202150af1f14ae8a057a1014ceea6b33fc4,ChIJb8Jg9pZYwokR-qHGtvSkLzs
1,Museum of the City of New York,"1220 5th Ave & 103rd Street, New York, NY 10029, USA",4.4,"museum, point_of_interest, establishment",40.792494,-73.951909,d94854c5dd4ca2bcb7ce25e3084ce1dba11d56d1,ChIJi4hYtB32wokR1Npx_Tv7phk
2,The Museum of Modern Art,"11 W 53rd St, New York, NY 10019, USA",4.5,"museum, point_of_interest, establishment",40.7614327,-73.97762159999999,05fd8501e2532c0ea3033bd3f3a282ffff502863,ChIJKxDbe_lYwokRVf__s8CPn-o
3,New Museum,"235 Bowery, New York, NY 10002, USA",4.0,"museum, point_of_interest, establishment",40.7223376,-73.9928905,0c931c5c3800bc979d8a5c41a5ecc1f0e619ebf6,ChIJlaRS3IVZwokR2llMD6dCt-U
4,American Museum of Natural History,"Central Park West & 79th St, New York, NY 10024, USA",4.6,"museum, point_of_interest, establishment",40.7813241,-73.9739882,d9dd2c58ebb5c5cb4d00b28db933b7e220a34b5a,ChIJCXoPsPRYwokRsV1MYnKBfaI
5,New-York Historical Society,"170 Central Park West, New York, NY 10024, USA",4.4,"museum, library, point_of_interest, establishment",40.7792476,-73.9742792,58fec942ca75a6d83d1b6c6ff242c405c77741bf,ChIJIVEyfY5YwokRXqcWLrl5XVA
6,The Jewish Museum,"1109 5th Ave & E 92nd St, New York, NY 10128, USA",4.3,"museum, point_of_interest, establishment",40.785334,-73.957351,d0643d0043de24df986abe45f1058ec4f2cca5fb,ChIJxY5cO6JYwokRPeVk85UNj2g
7,Solomon R. Guggenheim Museum,"1071 5th Ave, New York, NY 10128, USA",4.3,"museum, point_of_interest, establishment",40.7829796,-73.9589706,aa09742d854b00192daed833e2a56750587e8185,ChIJmZ5emqJYwokRuDz79o0coAQ
8,Whitney Museum of American Art,"99 Gansevoort St, New York, NY 10014, USA",4.5,"museum, point_of_interest, establishment",40.7395877,-74.0088629,6a6e35a1c9265a5f2b68cb954ba2c06c8dc19093,ChIJN3MJ6pRYwokRiXg91flSP8Y
9,Rubin Museum of Art,"150 W 17th St, New York, NY 10011, USA",4.6,"museum, point_of_interest, establishment",40.7400671,-73.9977244,3c44481e57f7b64872922bc9d9f0599188234aff,ChIJD4QSVbxZwokRaFPDajZtIaI
10,New York Transit Museum,"99 Schermerhorn St, Brooklyn, NY 11201, USA",4.6,"museum, store, point_of_interest, establishment",40.6904663,-73.9899714,1c9463006879557df9105b67616dfc41e51acb2f,ChIJdThqNVVawokRFk58UQOvtuM
11,Tenement Museum,"103 Orchard St, New York, NY 10002, USA",4.6,"museum, point_of_interest, establishment",40.7187958,-73.99006969999999,bf04c672d6730db2dc6a68816bbc53eb870c993a,ChIJ20bVJYdZwokRhI7esP3mYM0
12,The Frick Collection,"1 E 70th St, New York, NY 10021, USA",4.6,"museum, point_of_interest, establishment",40.771209,-73.9673991,87e936eb75a829e0363d510c2060a6621f83f9c7,ChIJHRH97uxYwokR6CBeDyn1jtg
13,Brooklyn Museum,"200 Eastern Pkwy, Brooklyn, NY 11238, USA",4.6,"museum, point_of_interest, establishment",40.6712062,-73.9636306,50536f2341830cb033e6342fb2e123d88fb5262b,ChIJyTmcRApbwokR-oXJRqpVI8Y
14,9/11 Memorial,"180 Greenwich St, New York, NY 10007, USA",4.8,"park, point_of_interest, establishment",40.7114743,-74.0134432,375f41aa9a1bff7c3766d2f5d80f21bd56487236,ChIJRcvoOxpawokR7R4dQMXMMPQ
15,Neue Galerie,"1048 5th Ave, New York, NY 10028, USA",4.5,"art_gallery, museum, point_of_interest, establishment",40.781264,-73.9603267,8b233f81d7007bf5f3ffe3d3c2b8397ebf24a4f3,ChIJ01_9-ZdYwokRL2JrA28GJp8
16,Cooper Hewitt Smithsonian Design Museum,"2 E 91st St, New York, NY 10128, USA",4.5,"museum, point_of_interest, establishment",40.7843958,-73.9578732,892116964e6b56ed90b0021e93e89b8a5a0bd294,ChIJsT8qSaJYwokR-m20OGJUKCA
17,The Morgan Library & Museum,"225 Madison Ave, New York, NY 10016, USA",4.7,"museum, point_of_interest, establishment",40.7492258,-73.9813971,1b5b32c5d96bd02e586f1d2dfcef7ca9aa848373,ChIJ3453OAdZwokRja92OOKCugM
18,Museum of Jewish Heritage,"36 Battery Pl, New York, NY 10280, USA",4.5,"museum, point_of_interest, establishment",40.7059752,-74.0185789,54efe427bcab3624edf646abf40dfd7b8e2692e5,ChIJYTeZ_BFawokRe_SRVX_pKIs
19,Museum of Arts and Design,"2 Columbus Cir, New York, NY 10019, USA",4.1,"museum, store, point_of_interest, establishment",40.767395,-73.982034,3c7c7abc978aaf5c71af2d6a91662d885d84faa1,ChIJgVtmM_ZYwokRcJJnebe5KX8
20,New York City Fire Museum,"278 Spring St, New York, NY 10013, USA",4.4,"museum, store, point_of_interest, establishment",40.7255619,-74.006935,db0e9b3dd113a92a157474fe93d01d9c705ba2ee,ChIJsblxMfNZwokRBLOhQZRjwtE
21,The Met Cloisters,"99 Margaret Corbin Dr, New York, NY 10040, USA",4.7,"museum, point_of_interest, establishment",40.8648628,-73.9317274,8edf774a665aeb294a6d6cf8df4405f4824f7e4f,ChIJK6bycAH0wokRrSnflfrnkZE
22,MoMA PS1,"22-25 Jackson Ave, Long Island City, NY 11101, USA",4.4,"museum, point_of_interest, establishment",40.7454901,-73.9473572,885be5960597801e043f42ab0227719e7b075f47,ChIJwfbFiiNZwokRN8hnF940DbY
23,"Intrepid Sea, Air & Space Museum","Pier 86, W 46th St, New York, NY 10036, USA",4.6,"museum, point_of_interest, establishment",40.7645266,-73.99960759999999,6bb43beb2047e4db91e332d24782460ccf8194c2,ChIJnxlg1U5YwokR8T90UrZiIwI
24,Merchant's House Museum,"29 E 4th St, New York, NY 10003, USA",4.6,"museum, point_of_interest, establishment",40.72766499999999,-73.99234,ee8866585fceeed72afe573dd7b8a8e651755fd3,ChIJCWqa2ppZwokRj3c3kcIR9x4
25,Museum of Chinese in America,"215 Centre St, New York, NY 10013, USA",4.4,"museum, store, point_of_interest, establishment",40.7194599,-73.9991797,97d902c82d72a3b29c7c7ad2e562a832ca82aeec,ChIJrd5vvolZwokRLR4z0Ui4KFs
26,The Studio Museum in Harlem,"144 W 125th St, New York, NY 10027, USA",4.4,"museum, point_of_interest, establishment",40.8083402,-73.9476858,7ca58d25e94c29d1e51630a775fc319d5caa98a7,ChIJ_ShwXw32wokRQJpaKAIcCOo
0,Central Park,"New York, NY, USA",4.8,"park, point_of_interest, establishment",40.7828647,-73.9653551,c9bcef33f0cc85eda31f1c7444e9b1a3b82c9a9f,ChIJ4zGFAZpYwokRGUGph3Mf37k
1,Riverside Park,"New York, NY, USA",4.6,"park, point_of_interest, establishment",40.8012339,-73.9723096,20a7fef51e1c17598e54bbc01afcdac90246caec,ChIJL1DP2C72wokRh3Lfn4T0Z3w
2,Washington Square Park,"New York, NY 10012, USA",4.6,"park, point_of_interest, establishment",40.7308228,-73.997332,b0df149329a0f6a4006cc5328e3d42acadaf1b4f,ChIJjX494pBZwokRGH620d9eYfo
3,Inwood Hill Park,"Payson Ave. &, Seaman Ave, New York, NY 10034, United States",4.6,"park, point_of_interest, establishment",40.8722007,-73.9255549,eeec542848892712b9623fe25be5598b50ff73ca,ChIJpUOPMe7zwokRJUQfPbEU1CI
4,Paley Park,"3 E 53rd St, New York, NY 10022, USA",4.4,"park, point_of_interest, establishment",40.7602157,-73.9751349,419df35f8d8721a1551348a9b917a90abf67deea,ChIJcUYGvftYwokRXvGL1B_cN2o
5,New York City Department of Parks and Recreation,"1234 5th Ave, New York, NY 10029, USA",4.7,"park, point_of_interest, establishment",40.7930688,-73.95150009999999,2b3ce59ed50aa3bd779a97745fe6a353c337dff6,ChIJixKvYBz2wokRTl_OIWH09SM
6,Bryant Park,"New York, NY 10018, USA",4.7,"park, point_of_interest, establishment",40.7535965,-73.9832326,f450a4290a3af961748f0eb93931479d2898e990,ChIJvbGg56pZwokRp_E3JbivnLQ
7,St. Nicholas Park,"St Nicholas Ave &, St Nicholas Terrace, New York, NY 10030, United States",4.2,"park, point_of_interest, establishment",40.8174689,-73.94874759999999,41a3ce5dbf2b934e1d7e9d9d4458e419adffba59,ChIJ0zHAy2_2wokROHSUG_3UnEw
8,Fort Greene Park,"Washington Park St, Brooklyn, NY 11205, USA",4.5,"park, point_of_interest, establishment",40.691396,-73.974944,d5f29c70ef69a83f8317ade5179a095f99d51367,ChIJvf6v7bZbwokRUO0-u24i73g
9,Morningside Park,"Morningside Dr, New York, NY 10026, USA",4.4,"park, point_of_interest, establishment",40.8060712,-73.9585391,a03301735a74559b4f20596225e6d4154a8e0209,ChIJPTmIHRX2wokR9QxLoOD3rRc
10,Richard Tucker Park,"Columbus Ave &, W 66th St, New York, NY 10023, United States",4.1,"park, point_of_interest, establishment",40.7735874,-73.9820171,fb97674bcfbba716dafc2525c234a5390448d059,ChIJwxkbavVYwokRxNHJxnWpGkk
11,John Jay Park,"FDR Dr., New York, NY 10021, USA",4.5,"park, point_of_interest, establishment",40.7693053,-73.9493916,e2cf2f3aada004522f008ebdf078192f93f4d0e8,ChIJEQ6kk8dYwokRVW7W8Xj-lqw
12,Greenacre Park,"217 E 51st St, New York, NY 10022, USA",4.8,"park, point_of_interest, establishment",40.7562441,-73.9692882,b2446e6c54413a661d9599177c41fa85e34264b4,ChIJGaiaEONYwokR68EFhU8zSNc
13,Pier 51 at Hudson River Park,"Hudson River Greenway, New York, NY 10014, USA",4.6,"park, point_of_interest, establishment",40.7382067,-74.01070469999999,2b627fef9d8b18e1fb811c02fdcb117cbf3e4261,ChIJNUwaa-pZwokRh_DHYDHBWkc
14,Willowbrook Park,"1 Eton Pl, Staten Island, NY 10314, USA",4.4,"park, point_of_interest, establishment",40.6005621,-74.15811289999999,2222492d8bdd319f80360a8c36a6ebef867eb82f,ChIJjd5CmEJMwokR3q_qsj1h3Dk
15,Roberto Clemente State Park,"301 W Tremont Ave, Bronx, NY 10453, USA",4.3,"park, point_of_interest, establishment",40.8539353,-73.92113850000001,d7c9aa602085ee456a70083faf069ea750d8d264,ChIJp4cnbw70wokRu6e-fPdL-Vo
16,Little Bay Park,"Cross Island Pkwy, Whitestone, NY 11357, USA",4.5,"park, point_of_interest, establishment",40.7897211,-73.7889647,5ba6d8e4b3c1f24f2ab60466be01f3b1bb2b942d,ChIJO1DvZlyKwokRCDbATn5FzJA
17,Concert Grove,"95 Prospect Park West, Brooklyn, NY 11215, USA",4.2,"park, point_of_interest, establishment",40.6589927,-73.9644531,201344bfdf4034ebe7cf6b0e7f74ae4cf04e65f5,ChIJWd6m8RNbwokRI-rn2FyfgBM
18,Stuyvesant Square Park,"9, Rutherford Pl, New York, NY 10003, USA",4.4,"park, point_of_interest, establishment",40.73394649999999,-73.9841048,49d06af6f7159ad1bbdeeae87ae1716f8d5f23b6,ChIJH8eOxZ9ZwokR1GxjNrdIyLQ
19,Asser Levy Park,"302 Sea Breeze Ave, Brooklyn, NY 11224, USA",4.0,"park, point_of_interest, establishment",40.5751863,-73.9713897,00515f4e9b0bddc8d486da497a845babc6216306,ChIJJ6b4_0dEwokR3RI76Ea93dw
20,Albert Capsouto Park,"Varick Street &, Laight St, New York, NY 10013, United States",4.7,"park, point_of_interest, establishment",40.72201099999999,-74.00610089999999,1fe192401810dab368c985b0d11ce71984075d3a,ChIJcwaRMItZwokRcUerenHZUpo
21,Fort Tryon Park,"Riverside, Dr To Broadway, New York, NY 10040, USA",4.7,"park, point_of_interest, establishment",40.8625608,-73.9312995,3be27507240fd2843d3a9fbb6dde4b0f70b2b64d,ChIJTZ18cAH0wokR1HfVR86mzEA
22,Duane Park,"3836, 157 Duane St, New York, NY 10013, United States",4.0,"park, point_of_interest, establishment",40.7171756,-74.0093751,41704fcbf3deffe622421b122b212ba25c87a4b7,ChIJyyVUUx5awokR8hYrIfrOwhU
23,Pumphouse Park,"New York, NY 10080, USA",4.4,"park, point_of_interest, establishment",40.7120887,-74.0162412,ceb9622fdad895257707abdd4ac8a3c1030caa4b,ChIJQ7Dz7xpawokRZdJQSi7_yK0
24,Theodore Roosevelt Park,"200 Central Park West, New York, NY 10024, USA",4.6,"park, point_of_interest, establishment",40.78185089999999,-73.97476019999999,f7975c0f3f80afbec1b75d9bea63f34729b6cb48,ChIJv8mWqY9YwokRIzh7-8yBA14
25,Marcus Garvey Park,"6316, Mt Morris Park W, New York, NY 10027, United States",4.1,"park, point_of_interest, establishment",40.8044257,-73.9437629,14a6e204f19e3b6235c88535f89afb25a0a16d2c,ChIJHa6lPAz2wokRlRyxNExaJbQ
26,Washington Market Park,"199 Chambers St, New York, NY 10007, USA",4.4,"park, point_of_interest, establishment",40.7169743,-74.011467,a56a41de976c37aaa5c9400c8807df9c34266653,ChIJ4zHNix5awokR7eEBmC26WSQ
27,Jackson Square Park,"8 Ave &, Greenwich Ave, New York, NY 10014, United States",4.3,"park, point_of_interest, establishment",40.7389305,-74.0028253,67ba19a29936299f9233a551c5400c9f81724061,ChIJYfqGML5ZwokRYK2jK8PObFc
28,Highbridge Park,"2301 Amsterdam Ave, New York, NY 10033, USA",4.3,"park, point_of_interest, establishment",40.8446296,-73.9329638,1b32f3ca390c069d2accb8fd003e8ec8d252fbdd,ChIJI45ivSf0wokRMw68yH4_DEo
29,Abingdon Square,"Hudson St, New York, NY 10014, USA",4.3,"park, point_of_interest, establishment",40.7372939,-74.0054224,710e905e27c63dd077f04a8f835c23ded9b778ae,ChIJSztkP5VZwokRXVSH9NrC_Xs
30,Thomas Paine Park,"Lafayette St &, Worth St, New York, NY 10007, United States",4.2,"park, point_of_interest, establishment",40.71503209999999,-74.00266169999999,af5b47f00c8f388e19cb44815652c7fce982216d,ChIJja2OEiFawokRqvKkBrwmrFo
31,Alley Pond Park,"Union Tpke, Oakland Gardens, NY 11364, USA",4.5,"park, point_of_interest, establishment",40.74239470000001,-73.73843409999999,c3725e46d2c2ea92faa36a42437782f479fa7ff3,ChIJzyx69P9hwokRMP73UTW2hTA
32,Marine Park,"Fillmore Ave, Brooklyn, NY 11229, USA",4.5,"park, point_of_interest, establishment",40.6055157,-73.9348698,c1e694cfa5d60e8c94279d4b2604294e51be9108,ChIJd5pPt3pDwokRdQveRDE63-g
33,Zuccotti Park,"New York, NY 10006, USA",4.3,"park, point_of_interest, establishment",40.7092649,-74.011262,4ac3a2a7faa4692e0894c4b2ca401538451aadd4,ChIJd_J7XBdawokRpAdtBwzIx0s
34,Parks Dog Run,"FDR Dr., New York, NY 10005, USA",4.4,"park, point_of_interest, establishment",40.7044275,-74.0056172,3781ce80b592908f77d321392c5099e48cc6cf17,ChIJbz0E5T1awokRxx7gCMznjoM
35,Forest Park,"Myrtle Ave, Woodhaven, NY 11421, USA",4.5,"park, point_of_interest, establishment",40.7040764,-73.84591019999999,e8c3f8fa0b194b3f3db20c96eb676977a6c5df2b,ChIJl7IPOQ9ewokRTrH0Stn1Rhg
36,Columbus Park,"Mulberry Street &, Baxter St, New York, NY 10013, United States",4.1,"park, point_of_interest, establishment",40.7156618,-73.9999961,e447eef7610ff9b20f12fc5c4d9f5b888ee84552,ChIJZQD10CZawokRCuvDW1oLE-Y
37,The High Line,"New York, NY 10011, USA",4.7,"park, point_of_interest, establishment",40.7479925,-74.0047649,72dc79d023feec77725d7336e7c46fee27805319,ChIJ5bQPhMdZwokRkTwKhVxhP1g
38,Juniper Valley Park,"80th St., Juniper Blvd. N, Juniper Blvd. S, Middle Village, NY 11379, United States",4.7,"park, point_of_interest, establishment",40.720497,-73.8796412,61c567aae7556de1c9bfd0e7abaffdbd2e52ed03,ChIJwaaRmmdewokRTRadCEvkHnA
39,Sara D. Roosevelt Park,"Chrystie St &, Forsyth St, New York, NY 10002, United States",3.9,"park, point_of_interest, establishment",40.7217408,-73.9915425,c91788ad6990d3c221ff6168995901e4cc70cc5b,ChIJX0-MTYZZwokR0L585ip8P18
40,Sakura Park,"3916, 500 Riverside Dr, New York, NY 10027, United States",4.5,"park, point_of_interest, establishment",40.8127856,-73.9622491,911f08e428cceacc478c2aa03da7b4b9cb940d78,ChIJ6ZV3WUD2wokRd56jEa1BSjg
41,Pelham Bay Park,"Watt Avenue &, Middletown Rd, Bronx, NY 10465, United States",4.4,"park, lodging, point_of_interest, establishment",40.8654997,-73.8091736,ae675aac3963f6221a0b6aff482edaa0bef1e4a6,ChIJ0yDZfqCMwokR4_gc794XRHA
42,Union Square Park,"201 Park Ave S, New York, NY 10003, USA",4.5,"park, point_of_interest, establishment",40.7358235,-73.9905215,ba0fb5cd74f8656dc1be451bf69acba17b7cfea4,ChIJuwazLZ9ZwokRoDhp6p5_XCo
43,Astoria Park,"19 19th St, Astoria, NY 11105, USA",4.6,"park, point_of_interest, establishment",40.7792459,-73.9229654,e32486c0c25fd7387d5dd89f678197cc75d04e3d,ChIJhTKnW1pfwokRybwkvof4QWs
44,Mount Prospect Park,"Eastern Pkwy, Brooklyn, NY 11238, USA",4.5,"park, point_of_interest, establishment",40.6717046,-73.96675239999999,7b02a28c1b6a331e2b5a5baa650bc72590c94a94,ChIJAYbjmwlbwokReniI6h1d49E
45,Gantry Plaza State Park,"4-09 47th Rd, Long Island City, NY 10007, USA",4.7,"park, point_of_interest, establishment",40.7455077,-73.9587485,546280eddd86659a1d2e9ca26b6fd30df9b1c866,ChIJ7eAADSJawokRObgUbl1g6mk
46,South Slope Dog Run,"Brooklyn, NY 11215, USA",3.9,"park, point_of_interest, establishment",40.6609634,-73.9880527,096ff56a778f1368f08f77c0c004abdce2b6dfec,ChIJne7UReFawokRVTnh7XKHt5k
47,Vesuvio Playground,"101 Thompson St, New York, NY 10012, USA",4.3,"park, point_of_interest, establishment",40.7253366,-74.0025474,95719923d3a85ddc578da0f7d09ed213c9e1d01d,ChIJy4wBT4xZwokRlPlUcvHPRBE
48,Battery Park City Parks,"75 Battery Pl, New York, NY 10280, USA",5.0,"local_government_office, park, point_of_interest, establishment",40.7067678,-74.0171771,c4ffd85ccfad5875320e82055126e77069f92f71,ChIJ21_PURBawokRsSwjFUtw4i8
49,East River State Park Dog Run,"90 Kent Ave, Brooklyn, NY 11249, USA",3.1,"park, point_of_interest, establishment",40.7215092,-73.9609104,2040bf05b0df53fea6dbe149142f817fa520bbbc,ChIJ2bbP6WdZwokR_GMDsF65Wf4
50,New York Vietnam Veterans Memorial Plaza,"55 Water St, New York, NY 10041, USA",4.4,"park, point_of_interest, establishment",40.7026773,-74.0097895,f37af8a995f15b95c6ac6cc8bd7ec5ee6a19d397,ChIJ6UIVsxVawokR3eZJUCIPr3E
51,Socrates Sculpture Park,"32-01 Vernon Blvd, Long Island City, NY 11106, USA",4.3,"park, point_of_interest, establishment",40.768479,-73.9366363,d05f4c3d96f29273f6fe90bb73c3f0591c48b591,ChIJvcjmWLVYwokRFz2FMdi00cA
52,Greeley Square Park,"North Broadway, New York, NY 10001, USA",4.3,"park, point_of_interest, establishment",40.7487156,-73.9882971,24056f7b25fbba87fb322682005e38be509373b5,ChIJEeWrKalZwokRg6qlyNqcv2A
53,Battery Park,"New York, NY 10004, USA",4.5,"park, point_of_interest, establishment",40.7032775,-74.0170279,58fc4a0c3ef0ffc426a52c0ea131e1bd7b8d7084,ChIJraKL-BJawokREpxDmF5GcL4
54,James J Walker Park,"Hudson St, New York, NY 10013, USA",4.2,"park, point_of_interest, establishment",40.7298199,-74.0063953,1a866ece0876016d46376a71418638b526d85436,ChIJz1YttJJZwokRZtZyCKbuzMU
55,Freshkills Park,"Staten Island, NY 10314, USA",3.8,"park, point_of_interest, establishment",40.5773669,-74.18616159999999,7c3bb99c8b81313aed1f6e478f55d51cfc93c9d1,ChIJt5Y1K3xLwokRcrFMDAs6WGo
56,Tribeca Park,"8 Beach St, New York, NY 10013, USA",4.4,"park, point_of_interest, establishment",40.72019040000001,-74.005545,de0fe4b2c12856dd22b4fef8db36ed442871e608,ChIJFVr4xopZwokRXbYt0DfWPoU
57,Governors Island Picnic Point,"910 Gresham Rd, Brooklyn, NY 11231, USA",4.7,"park, point_of_interest, establishment",40.6854942,-74.02597279999999,6396548ac71a1bc5ff465659a97915f19acf2f63,ChIJozrGZ2VawokRhCYCtqZjo2E
58,Corlears Hook Park,"397 FDR Dr., New York, NY 10002, USA",4.2,"park, point_of_interest, establishment",40.7116965,-73.9796972,9e7ae898ce4397465990c8d0dac7537dcf084aa1,ChIJbZSkRNRbwokRdMAaOge7PUU
59,St. Vartan Park,"1st Avenue &, E 35th St, New York, NY 10016, United States",4.2,"park, point_of_interest, establishment",40.7451124,-73.9736293,182780cb7a5a8f32d24144915e3e777bf4e517e5,ChIJ61QpcwVZwokRKRSfanl07Ro
0,The Shops at Columbus Circle,"10 Columbus Cir, New York, NY 10019, USA",4.3,"shopping_mall, point_of_interest, establishment",40.7686013,-73.98321159999999,63543c9ef29f2a3e695988e01f33632131fcab88,ChIJp3PsL_ZYwokRdBcE-3KTjrg
1,Shopping Girlfriend NYC,"315 W 39th St, New York, NY 10018, USA",5.0,"clothing_store, store, point_of_interest, establishment",40.7559712,-73.99204519999999,f5f347f8a0a8ef4102ade971db12aa7761e76ec8,ChIJUdrSNb5ZwokRsoOdOHCNBQk
2,Manhattan Mall,"100 West 33rd Street, New York, NY 10001, USA",3.9,"shopping_mall, point_of_interest, establishment",40.7492663,-73.9893112,c9135f5a551204ca6a67d4aed2d39586a1763c32,ChIJ6-70LKlZwokRzdXlGpoA_so
3,Westfield World Trade Center,"185 Greenwich St, New York, NY 10007, USA",4.6,"shopping_mall, shoe_store, department_store, clothing_store, store, restaurant, point_of_interest, food, establishment",40.7114771,-74.011478,5fd9855f3162a0eddc350ba4d81e12b1ba725725,ChIJ4fd_MRpawokRHr3yLkECrOE
4,Staten Island Mall,"2655 Richmond Ave, Staten Island, NY 10314, USA",4.2,"shopping_mall, point_of_interest, establishment",40.5816575,-74.16608,06d74dad88397aefb8cd5d75ddd9c6c161152a60,ChIJMQW5NIdLwokR8jmOUJsxtso
5,South Street Seaport,"89 South St, New York, NY 10038, USA",4.3,"shopping_mall, point_of_interest, establishment",40.7056185,-74.0027446,fd423448c5594d09b3e4282d6c02ef80eb243d44,ChIJ48y8-TxawokROJTPwB3cxz8
6,Queens Center,"90-15 Queens Blvd, Elmhurst, NY 11373, USA",4.4,"shopping_mall, clothing_store, store, restaurant, point_of_interest, food, establishment",40.734682,-73.8699788,fa4ed3537b03de812d6993a06d7802bcba1659ea,ChIJA7Ciw0tewokRWJrqRqhFJBs
7,The Mills at Jersey Gardens,"651 Kapkowski Rd, Elizabeth, NJ 07201, USA",4.4,"shopping_mall, point_of_interest, establishment",40.659951,-74.1710706,c7e42a7b648220b40a72556cf8c79d83cecb0835,ChIJixQeNIBNwokRItXUV8ujLjQ
8,"Michael's, The Consignment Shop for Women","1125 Madison Ave, New York, NY 10028, USA",4.8,"clothing_store, store, point_of_interest, establishment",40.779633,-73.95926399999999,c383297ccdd1501f6c69685378165e16d1a0379c,ChIJCz0I15VYwokRWwJb-C1gnhA
9,Artists & Fleas SoHo,"568 Broadway, New York, NY 10012, USA",4.2,"shopping_mall, point_of_interest, establishment",40.724298,-73.997384,7f4b55a6eb3e0f60eae3581cfdcd08906b87e00b,ChIJh5ifHI9ZwokR_UFmNmGu77k
10,Gabriella New York Bridal Salon,"155 Wooster St #3W, New York, NY 10012, USA",3.5,"clothing_store, store, point_of_interest, establishment",40.7263585,-73.999425,d8d76402f7eaeeb36b37adca671211b5d42af5b2,ChIJUa2ua45ZwokRuSqn852lHLw
11,Creatures of Comfort,"205 Mulberry St, New York, NY 10012, USA",3.7,"clothing_store, store, point_of_interest, establishment",40.721625,-73.99653099999999,61b230f677f6bf6db769b986af1562fc75db68a5,ChIJlysAx4hZwokRQ9n294wZZRw
12,Diplomatic Duty Free Shops of New York,"866 2nd Ave 2nd floor, New York, NY 10017, USA",4.5,"jewelry_store, clothing_store, store, point_of_interest, food, establishment",40.752506,-73.969917,b3c7b4915357628dbb439e19b4244d45a4418485,ChIJIfKmQx1ZwokRAiuTngo5f_A
13,Town Shop Lingerie- Bra Fittings,"2270 Broadway, New York, NY 10024, USA",4.7,"clothing_store, store, point_of_interest, establishment",40.785495,-73.97852,c7107d782b540f4dad274352594c17059d9b3298,ChIJ84o3QYZYwokRU4WDDB3U3xs
14,Jean Shop,"37 Crosby St, New York, NY 10013, USA",4.6,"clothing_store, store, point_of_interest, establishment",40.72094850000001,-73.9992418,711ce8949fb459a814e2518f469a18bb4155d775,ChIJEceghMBZwokR-SL1kz_fs_c
15,Lovely Bride New York,"182 Duane St, New York, NY 10013, USA",4.3,"clothing_store, store, point_of_interest, establishment",40.717149,-74.010093,55d2109c95ca770fed0243ec287a26de74e63134,ChIJ55edVx5awokRQSZUxYUFZd8
16,Macy's eSpot Kiosk,"13650 Roosevelt Ave, Flushing, NY 11354, USA",3.3,"shopping_mall, electronics_store, store, point_of_interest, establishment",40.7597704,-73.82858759999999,4e5484364bf0e74425d497f798ba2b04aa5d2a01,ChIJlQngsxFgwokR04_HhWdf0Hc
17,New York Vintage Inc,"117 W 25th St, New York, NY 10001, USA",4.4,"clothing_store, store, point_of_interest, establishment",40.744631,-73.99261899999999,477434aefd07925fddd50341484b4373980120a4,ChIJaQPEGqVZwokRIKb19abLH7A
18,The Shop at NBC Studios,"30 Rockefeller Plaza, New York, NY 10112, USA",4.2,"store, point_of_interest, establishment",40.75932,-73.980058,9c151ae558f436e7effae0407f1d9380fa4da5c5,ChIJNZvR1v5YwokRadepdoJ17Vg
19,Genes Café Madison Avenue,"660 Madison Ave Fl 8, New York, NY 10065, USA",3.8,"cafe, store, point_of_interest, food, establishment",40.7646914,-73.9711429,c7d6eaaee683e79e49df30c6ef1355d64a01e5e7,ChIJrekR3-9YwokRzwy1f2cu1So
20,Cobblestones,"314 E 9th St, New York, NY 10003, USA",4.0,"clothing_store, store, point_of_interest, establishment",40.7288016,-73.98654429999999,ba5119fb4e222306bc3ee60eb174ccfb421f8474,ChIJiynfUJxZwokRMxyZrmpvJ1I
21,Housing Works Thrift Shops,"130 Crosby St, New York, NY 10012, USA",4.1,"clothing_store, home_goods_store, store, point_of_interest, establishment",40.7247093,-73.9963908,8fa43757bd0d1a41af2487d9afac7f24d2551992,ChIJ0WA5C49ZwokRlwCBkmzkUdo
22,SHOP UNTITLED,"27 W 8th St, New York, NY 10011, USA",4.8,"clothing_store, store, point_of_interest, establishment",40.7329667,-73.99776969999999,7952596ec47106dfdd95d0831d005cc9e14de962,ChIJc1jRK5dZwokRankYrf0jb88
23,Style Room NYC Shopping Tours,"225 W 34th St, New York, NY 10122, USA",5.0,"travel_agency, point_of_interest, establishment",40.7518134,-73.9916803,8a9c5caa413ae37fb43afd444cc02aba31608136,ChIJSfvCLKxZwokRJMq5NzUVYoc
24,Housing Works Thrift Shops,"245 W 10th St, New York, NY 10014, USA",4.6,"furniture_store, clothing_store, home_goods_store, store, point_of_interest, establishment",40.7339353,-74.0058945,a63cdf847d242e6efc51757f3b92d4877771b93c,ChIJo_reqJRZwokRAHCtJNsmaXM
25,The Hat Shop,"120 Thompson St, New York, NY 10012, USA",4.7,"clothing_store, store, point_of_interest, establishment",40.7259702,-74.00157639999999,4cd1c65a60e8fc674a67f8f80066b94eef8df2a8,ChIJGfIczI1ZwokRTQYwO6wDF04
26,Housing Works Thrift Shops,"2569 Broadway, New York, NY 10025, USA",4.2,"art_gallery, furniture_store, clothing_store, home_goods_store, store, point_of_interest, establishment",40.7951431,-73.97176879999999,ec6065da5aac00afef522bb43a83a90bb3425c0f,ChIJEbZQeSj2wokR2SRfjJHS408
27,ZTrend New York Shopping Tours,"1186 Broadway, New York, NY 10001, USA",5.0,"point_of_interest, establishment",40.7456539,-73.9884615,1bb16d7d8786de8789e8bf966effea544a7d914c,ChIJsWyiBKZZwokRk2cvdrMELXY
28,The New York Public Library Shop,"475 5th Ave, New York, NY 10018, USA",4.6,"library, book_store, store, point_of_interest, establishment",40.75246,-73.9811434,b999fde40afde8120fd743c6079d606cd83a1552,ChIJJcFX6alZwokRPElLWaXkTeA
29,Limelight Shops,"47 W 20th St, New York, NY 10011, USA",3.8,"shopping_mall, point_of_interest, establishment",40.7410753,-73.9937405,0810f49018fb50e720e1eab4ba852ccb858f7d34,ChIJhbETRaNZwokRYxrLpnVTijg
30,Raaka Chocolate,"64 Seabring St, Brooklyn, NY 11231, USA",4.8,"store, point_of_interest, food, establishment",40.68143670000001,-74.0071505,2fc610a0d35dbaf40de1f68c0180d473d8e00554,ChIJFyq4ScFbwokRwMJWGE6ad1o
31,The Plaza Boutique,"The Plaza Hotel, 1 W 58th St, New York, NY 10019, United States",4.7,"clothing_store, store, point_of_interest, establishment",40.7641638,-73.97445689999999,cd774ae32e5a3034cb19c0b4a1909620335742a7,ChIJXeTBhfBYwokRz6A4gM1j3_k
32,Designer Loft,"226 W 37th St, Second Floor, New York, NY 10018, United States",4.1,"clothing_store, store, point_of_interest, establishment",40.75331,-73.99059199999999,0390c9a196075d2ae794cee5956bc53909cb289d,ChIJr_LzXKxZwokRp5lz8T6it58
33,Fragrance Shop New York,"65 E 4th St, New York, NY 10003, USA",4.6,"clothing_store, store, point_of_interest, establishment",40.726808,-73.99067289999999,d81cf9bf2a82703a03f64e402626eab9334ba8bf,ChIJC-foeZtZwokRQrBWLT3le88
34,Housing Works Thrift Shops,"119 Chambers St, New York, NY 10007, USA",3.8,"furniture_store, clothing_store, home_goods_store, store, point_of_interest, establishment",40.7154113,-74.00842899999999,4f1fca60f2a5e92eb840185df06855d60e368dae,ChIJG2DVFx9awokRaIrPM2exvaU
35,T-Pop Shop NYC,"59 Franklin St, New York, NY 10013, USA",0.0,"clothing_store, store, point_of_interest, establishment",40.717346,-74.003337,a5ab818d94f692e566a7767adc5f3a77d1c69655,ChIJ1UgPiyBawokRFG48GADz120
36,NYC Velo,"66 2nd Ave, New York, NY 10003, USA",4.6,"bicycle_store, store, point_of_interest, establishment",40.7258825,-73.9893093,e09c8f98a54c376dd2abadbca725eec65e55eb89,ChIJ0Tw5r4RZwokRiO2CpQQA1m0
37,NYC Velo Hell's Kitchen,"590 W 45th St, New York, NY 10036, USA",4.5,"bicycle_store, store, point_of_interest, establishment",40.7625199,-73.9966348,3afc05e65e44dff6e5e7d5a46ff8e1528316e0f6,ChIJHaHScU5YwokRLT4Io-to9Pc
38,Time Square,"345 W 35th St, New York, NY 10001, USA",4.7,"shopping_mall, point_of_interest, establishment",40.7536704,-73.9946686,c3d4ad87e8a0a1a863c99c3cf2f921518c2bd198,ChIJu2zgh61ZwokRu-BPG0fOCh8
39,Dover Street Market New York,"160 Lexington Ave, New York, NY 10016, USA",4.4,"clothing_store, store, point_of_interest, establishment",40.7440962,-73.9817188,2130ab0bfad8b1bfc2c7d792a5f8a7349517b3e7,ChIJTS9-FAhZwokRcbse7lr_jHA
40,Brookfield Place,"230 Vesey St, New York, NY 10281, USA",4.5,"shopping_mall, point_of_interest, establishment",40.7127168,-74.01528239999999,30005ece85c57803e290712f5f70ffc105849cb9,ChIJy8jTDBtawokRB9wNyxemSw8
41,Necessary Clothing,"443 Broadway, New York, NY 10013, USA",2.3,"clothing_store, store, point_of_interest, establishment",40.720157,-74.0010544,43d3f3f2a6184493a12a73967f2a5db672e153b8,ChIJt41PJopZwokRacUl10saeGA
42,NYC Smoke Shop & Vape Shop,"12 John St, New York, NY 10038, USA",4.2,"store, point_of_interest, establishment",40.7098644,-74.0090517,84963c252168d334e7d6a50d922c60c23b0582c6,ChIJ5f4tLBhawokRut96Q4N690k
43,"Grand St & Bowery, Manhattan, NY","Bowery & Grand St, New York, NY 10013, United States",0.0,"shopping_mall, point_of_interest, establishment",40.7184706,-73.9948124,79b3dafcdaf759a93a86ec0c72c9d36803a3e605,ChIJt-CyCohZwokRARlkL446WW0
44,The Seaport District,"19 Fulton St, New York, NY 10038, USA",4.6,"shopping_mall, point_of_interest, establishment",40.7070877,-74.003546,ee1d7d900f2dfb351b344464139b7a274dc591fa,ChIJh6Pk4TxawokRQn2vBz09L-M
45,Artists & Fleas,"88 10th Ave, New York, NY 10011, USA",4.3,"art_gallery, clothing_store, electronics_store, home_goods_store, store, point_of_interest, establishment",40.7428772,-74.00737409999999,6a7222e9369d59c686855dde3466390ea6c446a6,ChIJo6ZHsMBZwokRBCS2f2XuMVU
46,New York & Company,"1453 Metropolitan Ave #7, Bronx, NY 10462, USA",3.8,"shoe_store, jewelry_store, clothing_store, store, point_of_interest, establishment",40.8370978,-73.8609542,63f23ddcf39b914fae5e7e9ca5e340e4c1a06203,ChIJXxqwNr_0wokRo2CQ4vlQggI
47,Toga Bike Shop,"110 West End Ave, New York, NY 10023, USA",3.3,"bicycle_store, store, point_of_interest, establishment",40.7748037,-73.98785579999999,7ddf99258c35c426552e38fcd788c6c6d9bf641e,ChIJQ9MPHF5YwokRNOs38qSxDM8
48,Dehati Mall,"New York, NY 10007, USA",5.0,"shopping_mall, point_of_interest, establishment",40.7160722,-74.004954,1bd0aad230b6004268df5d440cd236880ffdcdd2,ChIJn2p1tSFawokRCCMGHsSwZY4
49,Tangchao Inc,"114,, 88 E Broadway, New York, NY 10002, United States",5.0,"shopping_mall, point_of_interest, establishment",40.7138354,-73.99414030000001,beda2db3551bed6e9d932fd00bb44c4f0691db2e,ChIJq3ALmyhawokRUoR_1x4s2PY
50,Exit9 Gift Emporium NYC,"51 Avenue A, New York, NY 10009, USA",4.5,"home_goods_store, store, point_of_interest, establishment",40.7241016,-73.9852646,8f457dedae6fe1f79ce62f0a6a22221c03aedf14,ChIJOzIewIJZwokRlex7MS_C-hQ
51,New York & Company,"409 Gateway Dr, Brooklyn, NY 11239, USA",4.2,"shoe_store, jewelry_store, clothing_store, store, point_of_interest, establishment",40.6532669,-73.87187759999999,ef8ef5e204246bb7737052ad0b3fff4411f2c122,ChIJeQYDhQ5dwokRyqawBQIG_TM
52,Macy's,"151 W 34th St, New York, NY 10001, USA",4.3,"department_store, shoe_store, jewelry_store, furniture_store, clothing_store, home_goods_store, store, point_of_interest, establishment",40.7508025,-73.98948349999999,e04114820206890ff0155d2f7a6f7efc0903fb9b,ChIJ3xjWra5ZwokRrwJ0KZ4yKNs
53,Strand Bookstore,"828 Broadway, New York, NY 10003, USA",4.8,"book_store, store, point_of_interest, establishment",40.73331700000001,-73.9909639,e00fc357335dd6213a1bbf3de746d61e91d458b5,ChIJnSKGEJlZwokRQIpiCvzKzV4
54,Fujifilm Wonder Photo Shop,"176 5th Ave, New York, NY 10010, USA",4.1,"electronics_store, home_goods_store, store, point_of_interest, establishment",40.7411545,-73.9900821,3d9399f53ac0de5a6ccad35d16d7878d4d96f789,ChIJg1K29aNZwokRbrJKbWmtBeA
55,Ministry of Tomorrow - Vegan Luxury Designer Leather Hand Bags NY,"185 Greenwich St, New York, NY 10007, USA",5.0,"shopping_mall, point_of_interest, establishment",40.71103919999999,-74.01174840000002,dd5724a1c70c01957fe074bbfe8eb346ce504130,ChIJx_I4jRlawokRttXSQolQatk
56,The Drama Book Shop Inc,"250 W 40th St #1, New York, NY 10018, USA",4.8,"book_store, store, point_of_interest, establishment",40.7554504,-73.9898286,a71a042cb58bd6b021d51b98c6195d3d82254ab5,ChIJKwlmsKxZwokRfLTqxrJvDzY
57,Landmark Coffee Shop,"158 Grand St, New York, NY 10013, USA",4.0,"cafe, store, restaurant, point_of_interest, food, establishment",40.7199563,-73.99862499999999,9fbb100abd8300d77b0cd6babc31f2b74e5e8f2a,ChIJN66GpolZwokRAPJSwkC8FtE
58,New York & Company,"30-37 Steinway St #30, Astoria, NY 11103, USA",3.7,"shoe_store, jewelry_store, clothing_store, store, point_of_interest, establishment",40.762637,-73.9155396,5797e1670cc677d7e900cc1469fcd1b651a22bc8,ChIJ6czb_T5fwokRUE1hE-pyv5Q
59,Disney Store,"1540 Broadway, New York, NY 10036, USA",4.5,"clothing_store, store, point_of_interest, establishment",40.7582571,-73.9850313,9f6776e9380b8d7ae0d5978db32f3b7c8bd87aa8,ChIJf2_0qFVYwokRcbTtlS60Vqg
0,The High Line,"New York, NY 10011, USA",4.7,"park, point_of_interest, establishment",40.7479925,-74.0047649,72dc79d023feec77725d7336e7c46fee27805319,ChIJ5bQPhMdZwokRkTwKhVxhP1g
1,Top of the Rock,"30 Rockefeller Plaza, New York, NY 10112, USA",4.7,"point_of_interest, establishment",40.7591164,-73.9795433,e05462d15e6f301386934e30734e0c6d39636b95,ChIJe7vKMf9YwokRIMYfDz7iF9o
2,Things To Do In New York,"200 Park Ave 19th Floor, New York, NY 10166, United States",3.5,"point_of_interest, establishment",40.7534339,-73.9766921,76dea99e2d7f869a92cbb79e3647c7af0318cb15,ChIJBw12GwJZwokRCoPEwRCi3G0
3,Statue of Liberty National Monument,"New York, NY 10004, USA",4.6,"park, point_of_interest, establishment",40.6892494,-74.04450039999999,5a0d7e67078e35af0c456a277df9ffba7c1e4da6,ChIJPTacEpBQwokRKwIlDXelxkA
4,One World Observatory,"285 Fulton St, New York, NY 10006, USA",4.6,"restaurant, point_of_interest, food, establishment",40.7133444,-74.0133677,48cd459142d91a750ab1ac00141e799d2a7c1bfb,ChIJTWE_0BtawokRVJNGH5RS448
5,9/11 Memorial,"180 Greenwich St, New York, NY 10007, USA",4.8,"park, point_of_interest, establishment",40.7114743,-74.0134432,375f41aa9a1bff7c3766d2f5d80f21bd56487236,ChIJRcvoOxpawokR7R4dQMXMMPQ
6,The Metropolitan Museum of Art,"1000 5th Ave, New York, NY 10028, USA",4.8,"art_gallery, museum, point_of_interest, establishment",40.7794366,-73.963244,f732f202150af1f14ae8a057a1014ceea6b33fc4,ChIJb8Jg9pZYwokR-qHGtvSkLzs
7,Brooklyn Botanic Garden,"990 Washington Ave, Brooklyn, NY 11225, USA",4.6,"park, point_of_interest, establishment",40.6694113,-73.96237359999999,01c3d364db2c0228e835480edc1204691a3b20a4,ChIJwYu_aA5bwokR2lxjW-QvQlc
8,New York Explorer Pass®,"151 W 34th St, New York, NY 10001, USA",4.6,"travel_agency, point_of_interest, establishment",40.7508054,-73.9894432,563011c420c40f6d47939cbaf10f2670ef2e29c4,ChIJs6UWAT1awokRQopDDN7vSwo
9,Gulliver's Gate,"216 W 44th St, New York, NY 10036, USA",4.6,"museum, point_of_interest, establishment",40.757584,-73.986995,22c5ab41a505113233d98ef454e1a9a91100f713,ChIJB3jt8VRYwokR3usmhiCep0o
10,Prospect Park,"Brooklyn, NY 11225, USA",4.7,"park, point_of_interest, establishment",40.6602037,-73.9689558,4a94c7dcb6fa8e242c2e232acadaf1f05a0d4536,ChIJQwRohxBbwokRmHrfAMb3ixc
11,Chrysler Building,"405 Lexington Ave, New York, NY 10174, USA",4.6,"premise, point_of_interest, establishment",40.7516208,-73.97550199999999,3457c605bb2ffc2b82b6b2fb097df9169c4e61b9,ChIJeWPFRwJZwokRGD60OOo74RU
12,The Frick Collection,"1 E 70th St, New York, NY 10021, USA",4.6,"museum, point_of_interest, establishment",40.771209,-73.9673991,87e936eb75a829e0363d510c2060a6621f83f9c7,ChIJHRH97uxYwokR6CBeDyn1jtg
13,Spirit of New York,"Chelsea Piers, Pier 61, New York, NY 10011, United States",4.4,"restaurant, point_of_interest, food, establishment",40.7479504,-74.01074349999999,2b586174dfaf0d14d821e0fc525ebacd619ba967,ChIJ9f8YY6RZwokRkxx9usQ_vno
14,Battery Park,"New York, NY 10004, USA",4.5,"park, point_of_interest, establishment",40.7032775,-74.0170279,58fc4a0c3ef0ffc426a52c0ea131e1bd7b8d7084,ChIJraKL-BJawokREpxDmF5GcL4
15,Bronx Zoo,"2300 Southern Blvd, Bronx, NY 10460, USA",4.5,"zoo, point_of_interest, establishment",40.8505949,-73.8769982,3ee4872ae045fe0d1b5d37525e0dd63ba4462540,ChIJi9JqUYP0wokRLhCVlxy0bgU
16,Ground Zero Museum Workshop,"420 W 14th St fl 2, New York, NY 10014, USA",4.5,"museum, point_of_interest, establishment",40.741231,-74.00670099999999,17253081513d270bd6adadb81be8931fe65ba9ef,ChIJVdeFgMBZwokR6O7aBJFn0g4
17,African Burial Ground National Historic Monument,"290 Broadway, New York, NY 10007, USA",4.6,"park, point_of_interest, establishment",40.7145049,-74.0043973,e2db8abe6e68bf497b20ce0df15c8e0a0709ad86,ChIJM3a4kCFawokRDRxdeYJQgnE
18,Governors Island National Monument,"10 South St, New York, NY 10004, USA",4.6,"point_of_interest, establishment",40.6919879,-74.01599499999999,e2568410beb651c76959c8c706e1d771fc316fa9,ChIJ2_ey6W9awokRxng4fzLDbPo
19,Federal Hall,"26 Wall St, New York, NY 10005, USA",4.4,"museum, point_of_interest, establishment",40.7073993,-74.0102088,b3fe6301d045106e1267fae5357e6f2aaab812f8,ChIJAaIFAxdawokR8txc3YPbD3A
20,The New York Pass®,"234 W 42nd St, New York, NY 10036, USA",4.2,"travel_agency, point_of_interest, establishment",40.756427,-73.988834,dfaabcd3d76c46067543ffefab4730c4884f4006,ChIJ5-oA5v9YwokRNaOTR_aua14
21,Bateaux New York,"Chelsea Piers, Pier 61, New York, NY 10011, United States",4.5,"restaurant, point_of_interest, food, establishment",40.7474567,-74.00943989999999,2b538434d1e49874ff6731a58c62894dfb11cf2d,ChIJeSRQJLtZwokRX_b4Us3l72c
22,Washington Square Park,"New York, NY 10012, USA",4.6,"park, point_of_interest, establishment",40.7308228,-73.997332,b0df149329a0f6a4006cc5328e3d42acadaf1b4f,ChIJjX494pBZwokRGH620d9eYfo
23,The Met Cloisters,"99 Margaret Corbin Dr, New York, NY 10040, USA",4.7,"museum, point_of_interest, establishment",40.8648628,-73.9317274,8edf774a665aeb294a6d6cf8df4405f4824f7e4f,ChIJK6bycAH0wokRrSnflfrnkZE
24,Brooklyn Bridge Park,"334 Furman St, Brooklyn, NY 11201, USA",4.7,"park, point_of_interest, establishment",40.6995399,-73.9973777,82a3fefae28d96a965db2a0ae55430d26e6a1a8e,ChIJjaFpo0ZawokRBcOFUZ13CaE
25,Take Me Out NYC,"33 E 17th St, New York, NY 10003, USA",4.5,"point_of_interest, establishment",40.7372373,-73.9893388,452fee64be7d9e42751265842ada12b534d33ebe,ChIJKRYZJ4hYwokRN3UH2hMcVQ4
26,New York City Fire Museum,"278 Spring St, New York, NY 10013, USA",4.4,"museum, store, point_of_interest, establishment",40.7255619,-74.006935,db0e9b3dd113a92a157474fe93d01d9c705ba2ee,ChIJsblxMfNZwokRBLOhQZRjwtE
27,Manhattan Skyline,"103 W 55th St, New York, NY 10019, USA",4.6,"real_estate_agency, point_of_interest, establishment",40.763342,-73.9783013,10ac18f3fee3112212794770d2fa45e4b1821a50,ChIJbRAuwPlYwokR829KR7QQLVI
28,Fort Tryon Park,"Riverside, Dr To Broadway, New York, NY 10040, USA",4.7,"park, point_of_interest, establishment",40.8625608,-73.9312995,3be27507240fd2843d3a9fbb6dde4b0f70b2b64d,ChIJTZ18cAH0wokR1HfVR86mzEA
29,Madison Square Park,"11 Madison Ave, New York, NY 10010, USA",4.6,"park, point_of_interest, establishment",40.7420371,-73.9875635,abd931421034043d086a5e1ad376a68b064a5f57,ChIJp32RvaZZwokRfH0Zgzl9mXk
30,Tenement Museum,"103 Orchard St, New York, NY 10002, USA",4.6,"museum, point_of_interest, establishment",40.7187958,-73.99006969999999,bf04c672d6730db2dc6a68816bbc53eb870c993a,ChIJ20bVJYdZwokRhI7esP3mYM0
31,Museum of the Moving Image,"36-01 35th Ave, Astoria, NY 11106, USA",4.6,"museum, point_of_interest, establishment",40.7563454,-73.9239496,a009daab612d086d65db9905e5d7fdc61dbb22da,ChIJAx_yUCVfwokRQ2xEBIWV21g
32,World Yacht,"Pier 81 W 41st St, New York, NY 10036, USA",4.5,"point_of_interest, establishment",40.7617513,-74.0024155,641790934d4f6f731fb42f5a2378e06d706f255d,ChIJczFOwKpZwokR_ZP4uFRPmSQ
33,New York Ghost Walk,"Washington Square North, 5th Ave, New York, NY 10003, United States",4.5,"point_of_interest, establishment",40.731242,-73.997147,082f44ae04b96c0aa34274005aa2511e772bc0cb,ChIJmxyg3ZBZwokR1nlwFk2013M
34,Green-Wood Cemetery,"500 25th St, Brooklyn, NY 11232, USA",4.6,"cemetery, point_of_interest, establishment",40.65807789999999,-73.9948493,3ae50abe82432383d7f6a850e7798c44d7c7e818,ChIJ5wpCzsJawokRZ_zEIYKrf60
35,Riverside Park,"New York, NY, USA",4.6,"park, point_of_interest, establishment",40.8012339,-73.9723096,20a7fef51e1c17598e54bbc01afcdac90246caec,ChIJL1DP2C72wokRh3Lfn4T0Z3w
36,Flushing Meadows Corona Park,"Queens, NY, USA",4.5,"park, point_of_interest, establishment",40.73971359999999,-73.840785,45542707aa19f452cae27cc2254f5362ec558ce9,ChIJ-2Yhwn9gwokR4Wwy6GgsPRM
37,Solomon R. Guggenheim Museum,"1071 5th Ave, New York, NY 10128, USA",4.3,"museum, point_of_interest, establishment",40.7829796,-73.9589706,aa09742d854b00192daed833e2a56750587e8185,ChIJmZ5emqJYwokRuDz79o0coAQ
38,Franklin D. Roosevelt Four Freedoms Park,"1 FDR Four Freedoms Park, Roosevelt Island, NY 10044, USA",4.6,"park, point_of_interest, establishment",40.7508076,-73.9604123,7a967e503984bdfdbf3786a879794777ae4e29ea,ChIJRUgJkx9ZwokR6W8mnGZVcl0
39,Club Free Time,"20 Waterside Plaza, New York, NY 10010, USA",3.6,"point_of_interest, establishment",40.7373449,-73.9739237,97a5e8c704518489513723554585cfb1c0e8a3ab,ChIJ0fr6tg1ZwokRCo2-vKoTUT8
40,St. Patrick's Cathedral,"5th Ave, New York, NY 10022, USA",4.8,"church, place_of_worship, point_of_interest, establishment",40.7584653,-73.97599269999999,acf24f96362bdabb64807f6c17cba8bb1d5b738a,ChIJUW4vEPxYwokRW6o24DU0YIg
41,Empire State Building,"20 W 34th St, New York, NY 10001, USA",4.6,"point_of_interest, establishment",40.7484405,-73.98566439999999,bc232d2422e7068b2a2ffb314f02e3733dd47796,ChIJaXQRs6lZwokRY6EFpJnhNNE
42,American Museum of Natural History,"Central Park West & 79th St, New York, NY 10024, United States",4.6,"museum, point_of_interest, establishment",40.7813241,-73.9739882,d9dd2c58ebb5c5cb4d00b28db933b7e220a34b5a,ChIJCXoPsPRYwokRsV1MYnKBfaI
43,New York Botanical Garden,"2900 Southern Blvd, Bronx, NY 10458, USA",4.7,"park, point_of_interest, establishment",40.8623935,-73.8772467,00d4a9d11ae62cc044510d9efce504c64187b68b,ChIJyRUHuHzzwokRPxVBNKhcP9c
44,Brooklyn Bridge,"Brooklyn Bridge, New York, NY 10038, USA",4.7,"point_of_interest, establishment",40.7060855,-73.9968643,c1ac50eff9bb8e9505c59c69c4523ae94c4126fc,ChIJK3vOQyNawokRXEa9errdJiU
45,Zuccotti Park,"New York, NY 10006, USA",4.3,"park, point_of_interest, establishment",40.7092649,-74.011262,4ac3a2a7faa4692e0894c4b2ca401538451aadd4,ChIJd_J7XBdawokRpAdtBwzIx0s
46,Escape Games NYC - Escape Room,"79 Leonard St, New York, NY 10013, USA",4.8,"point_of_interest, establishment",40.7175412,-74.0049021,42d64fa34807470d858fed0b3337bcf258c343b2,ChIJhSrwaiBawokRbZtFPKj9Mpc
47,Escape Room NYC - Mission Escape Game,"265 W 37th St Suite 802A, New York, NY 10018, USA",4.8,"point_of_interest, establishment",40.754271,-73.99158899999999,89be4da93efd86cfa1a6d1fe4efae616d43d74bb,ChIJnc6m4ydawokRUi0a-XyHfv0
48,Central Park Carousel,"1802 65th St Transverse, New York, NY 10065, USA",4.2,"point_of_interest, establishment",40.7699237,-73.9752391,f4d460c1f15fcccb957cf48ff688e64c7c10424c,ChIJ43Mlx_NYwokR4bkDRJ0fE2M
49,Deno's Wonder Wheel Amusement Park,"3059 W 12th St, Brooklyn, NY 11224, USA",4.4,"amusement_park, point_of_interest, establishment",40.57433839999999,-73.9781885,90b19ff46230858b415a48c4511e17c216d0caf5,ChIJq2dBUzREwokRugdGFafrtIw
50,Madame Tussauds,"234 W 42nd St, New York, NY 10036, USA",4.3,"museum, point_of_interest, establishment",40.7564269,-73.9888338,91d863aed76a883afe4e320cef399278cb481e4b,ChIJ8VOfr1RYwokRhil9_pcMKuc
51,New York Transit Museum,"99 Schermerhorn St, Brooklyn, NY 11201, USA",4.6,"museum, store, point_of_interest, establishment",40.6904663,-73.9899714,1c9463006879557df9105b67616dfc41e51acb2f,ChIJdThqNVVawokRFk58UQOvtuM
52,Whitney Museum of American Art,"99 Gansevoort St, New York, NY 10014, USA",4.5,"museum, point_of_interest, establishment",40.7395877,-74.0088629,6a6e35a1c9265a5f2b68cb954ba2c06c8dc19093,ChIJN3MJ6pRYwokRiXg91flSP8Y
53,Central Park,"New York, NY, USA",4.8,"park, point_of_interest, establishment",40.7828647,-73.9653551,c9bcef33f0cc85eda31f1c7444e9b1a3b82c9a9f,ChIJ4zGFAZpYwokRGUGph3Mf37k
54,Conservatory Garden,"402 5th Ave, New York, NY 10029, USA",4.7,"park, point_of_interest, establishment",40.7937474,-73.9524239,195a5c1a78d2a97271b74fb3353e782e44a4ea5b,ChIJh70nPBz2wokR7EWPEdNPP9s
55,The Museum of Interesting Things Secret Speakeasy,"177 Prince St, New York, NY 10012, USA",4.4,"museum, point_of_interest, establishment",40.726449,-74.001798,81c3bfcea9cd4d1eaf2db907999725686fcbf83a,ChIJmYlexo1ZwokR1dEp7vEvIYM
56,"Intrepid Sea, Air & Space Museum","Pier 86, W 46th St, New York, NY 10036, United States",4.6,"museum, point_of_interest, establishment",40.7645266,-73.99960759999999,6bb43beb2047e4db91e332d24782460ccf8194c2,ChIJnxlg1U5YwokR8T90UrZiIwI
57,Pete's Candy Store,"709 Lorimer St, Brooklyn, NY 11211, USA",4.5,"bar, point_of_interest, establishment",40.718099,-73.950193,11adf46ba822923f689f94bc4ccb747afa8574bd,ChIJ5dUgV1pZwokRaUaTcwzM2eA
58,Jane's Carousel,"Old Dock St, Brooklyn, NY 11201, USA",4.6,"point_of_interest, establishment",40.7044297,-73.99238629999999,39cc68025d9cab66e9f581fcaa9f9c709d98539f,ChIJU9mVHzFawokRcNNO_Su8zGM
59,Queens County Farm Museum,"73-50 Little Neck Pkwy, Queens, NY 11004, USA",4.4,"museum, point_of_interest, establishment",40.7481378,-73.72104279999999,ec685fed6d83cfdb1a14e06b00828f20549dc1a0,ChIJ97dFr3JiwokRbeAyMsBwcnA
0,Bronx Zoo,"2300 Southern Blvd, Bronx, NY 10460, USA",4.5,"zoo, point_of_interest, establishment",40.8505949,-73.8769982,3ee4872ae045fe0d1b5d37525e0dd63ba4462540,ChIJi9JqUYP0wokRLhCVlxy0bgU
1,Central Park Zoo,"E 64th St, New York, NY 10021, USA",4.3,"zoo, point_of_interest, establishment",40.767778,-73.9718335,f623597bb5e95d518d99e6aa87e7f5056a5f856a,ChIJaWjW_PFYwokRFD8a2YQu12U
2,Queens Zoo,"53-51 111th Street Flushing, Corona, NY 11368, USA",4.4,"zoo, point_of_interest, establishment",40.7439678,-73.84924579999999,b5c0c7d98482ce21d68d4bd6948a85fda8f756e1,ChIJr4Vyr9BfwokRwIj7AIr7bzE
3,Prospect Park Zoo,"450 Flatbush Ave, Brooklyn, NY 11225, USA",4.4,"zoo, point_of_interest, establishment",40.6653747,-73.9654138,88c350d1cffb9e7d805886c219b746cb78f926d3,ChIJnWjS-wRbwokRpCq5RGEIH3E
4,New York Aquarium,"602 Surf Ave, Brooklyn, NY 11224, USA",4.0,"aquarium, point_of_interest, establishment",40.5742632,-73.9748754,8d6c14b576144c082256cf33bcef201794d5fd78,ChIJcRMeDzZEwokR3NsXUDpO9UU
5,Staten Island Zoo,"614 Broadway, Staten Island, NY 10310, USA",4.4,"zoo, point_of_interest, establishment",40.625124,-74.11537,38d6f8d7b1a5deb823b1c39b4aff57aef37092d8,ChIJjfNxe3BOwokRJWFGqQueVFY
