,name,formatted_address,rating,types,lat,lng,id,place_id
0,Pace Gallery,"32 E 57th St, New York, NY 10022, USA",4.8,"art_gallery, point_of_interest, establishment",40.761862,-73.972082,a79a4a8c0af1fdc350f8a79eb4955d65576ac0f3,ChIJFxXcxfpYwokR4SxqEQVpaLk
1,Luhring Augustine Gallery,"531 W 24th St, New York, NY 10011, USA",4.7,"art_gallery, point_of_interest, establishment",40.7492057,-74.0049504,27cb29e2c5bf3849cbfd0e1cdcdeeefcfbe6986b,ChIJwZCT7bdZwokRNx1YURTRbmM
2,The Metropolitan Museum of Art,"1000 5th Ave, New York, NY 10028, USA",4.8,"art_gallery, museum, point_of_interest, establishment",40.7794366,-73.963244,f732f202150af1f14ae8a057a1014ceea6b33fc4,ChIJb8Jg9pZYwokR-qHGtvSkLzs
3,Yancey Richardson,"525 W 22nd St, New York, NY 10011, USA",4.5,"art_gallery, point_of_interest, establishment",40.74761489999999,-74.0057547,73ea6246f9076b48c53ed7b69000806e769dac9b,ChIJe7AGCbhZwokRAFtmSbxzArY
4,Jeffrey Deitch,"18 Wooster St, New York, NY 10013, USA",5.0,"art_gallery, point_of_interest, establishment",40.721435,-74.003056,cbefae89e281127361feb41c454b78b564f7c306,ChIJdWA_r4tZwokRPgHkRNHAKog
5,Gavin Brown's enterprise,"291 Grand St, New York, NY 10002, USA",3.5,"art_gallery, point_of_interest, establishment",40.7174334,-73.992173,f3dd21a471de3196c01a6de89100f83fcee5ecb5,ChIJmZBlFO1ZwokRhPKLlzK7pzc
6,American Folk Art Museum,"2 Lincoln Square, New York, NY 10023, USA",4.2,"museum, point_of_interest, establishment",40.773207,-73.98138999999999,a9ffefef860f76e7fe7abc01b3ca90a35e06afba,ChIJEeD6FPVYwokRgs0ZbWMrrzk
7,Team Gallery,"83 Grand St, New York, NY 10013, USA",4.2,"art_gallery, point_of_interest, establishment",40.7216802,-74.0025587,18df8cdf1e4fc7ae191a547ff3a5104c53c353e0,ChIJK4dVuYtZwokRcYLi85TNuaM
8,Michael Werner Gallery,"4 E 77th St # 2, New York, NY 10075, USA",5.0,"art_gallery, point_of_interest, establishment",40.775242,-73.964254,cd2ae0adb281438c0ca24769d1f6f7d8d42b379a,ChIJX4_LaJRYwokRFRY0gPRav3I
9,Sean Kelly,"475 10th Ave, New York, NY 10018, USA",4.7,"art_gallery, point_of_interest, establishment",40.7560796,-73.9982615,eba3c1484e314612781eae06254065e014385b6d,ChIJWTV4jrZZwokRFYejsehrXyY
10,Anita Shapolsky Gallery,"152 E 65th St, New York, NY 10065, USA",4.0,"art_gallery, point_of_interest, establishment",40.7654055,-73.9645412,c5ab0aca297a7805d83a3d683e1e0f0d4ed7d2a6,ChIJXbDLOulYwokRSlIu2m790r8
11,Artists Space,"80 White St, New York, NY 10013, USA",4.1,"art_gallery, museum, point_of_interest, establishment",40.7178421,-74.0020559,29ea02dc3c3b0697c11cf0454b2a0c4cc57a0665,ChIJ0ZCpuItZwokRZoTuCB9Vjtg
12,Fischbach Gallery,"210 11th Ave Suite 801, New York, NY 10001, USA",0.0,"art_gallery, point_of_interest, establishment",40.7499366,-74.005949,db7cfaed8cf759767a774bb57080391e0d473925,ChIJsy_13LdZwokRIOr9lBXLY9Y
13,Sperone Westwater,"257 Bowery, New York, NY 10002, USA",4.6,"art_gallery, point_of_interest, establishment",40.72314799999999,-73.992583,997b4e445d2a09aa4a0db068f862ae40e0fa282e,ChIJoW8duIVZwokRDqKRPbNOM9E
14,Staley-Wise Gallery,"100 Crosby St #305, New York, NY 10012, USA",4.8,"art_gallery, point_of_interest, establishment",40.7240493,-73.99776849999999,8402f5af9d1f23f19127ce1c5ecdec632fb5e00c,ChIJcXGe4Y5ZwokRCR-Yzx1m-SE
15,Tanya Bonakdar Gallery,"521 W 21st St #1, New York, NY 10011, USA",4.4,"art_gallery, point_of_interest, establishment",40.747122,-74.006193,26386bcb104b7eb2b60c49666e72464c462a5d27,ChIJs5ukdLhZwokRR5fBgFl8K3E
16,Art Projects International,"434 Greenwich St, New York, NY 10013, USA",5.0,"art_gallery, point_of_interest, establishment",40.72271,-74.00979900000002,f83fdd977b3b2ff4c88d813e216ae0e26e54e890,ChIJTQikV_RZwokRv1Ufiev2Eoo
17,Woodward Gallery,"132A Eldridge St, New York, NY 10002, USA",4.8,"art_gallery, point_of_interest, establishment",40.7189134,-73.9914967,99659cfe636a56c4895f11ae01ea73a5531082e4,ChIJQSfDAIdZwokRruYOCAMp68Q
18,Talwar Gallery,"108 E 16th St #301, New York, NY 10003, USA",4.5,"art_gallery, point_of_interest, establishment",40.735522,-73.988784,5394fa8b17ef5d9dbbe90d6d374a2dd5d1a74d94,ChIJxROQUp9ZwokRHREc95HPxiM
19,Metro Pictures,"519 W 24th St, New York, NY 10011, USA",4.5,"art_gallery, point_of_interest, establishment",40.7489171,-74.0045717,83eae3a6ddc753d6095a1e07e5fb27ea6421b555,ChIJ2cJojbdZwokRJF3KrrBFnF0
20,Casey Kaplan Inc,"121 W 27th St, New York, NY 10001, USA",4.0,"art_gallery, point_of_interest, establishment",40.7461073,-73.99199569999999,b1bc1d43b363d4d58ff0f0896bf765f1f6f55dcf,ChIJt6X_dbhZwokRYfJrTeGlp6g
21,Ubu Gallery,"416 E 59th St, New York, NY 10022, USA",5.0,"art_gallery, museum, point_of_interest, establishment",40.7592599,-73.96114720000001,4c93e47e4ab7b4e1d032f01a79f4ba2a795782ea,ChIJNwg-C-dYwokR7pFow7mu9cc
22,SculptureCenter,"44-19 Purves St, Long Island City, NY 11101, USA",4.6,"museum, point_of_interest, establishment",40.7469373,-73.940835,ba73865214ceb74cee7e59de57330a0be9355471,ChIJg8J0MipZwokRO03w0rQvXJc
23,Smack Mellon,"92 Plymouth St, Brooklyn, NY 11201, USA",4.1,"art_gallery, point_of_interest, establishment",40.703791,-73.98974299999999,c9e0e353bbbb6105f8db2c9419d1e2d0610b3f1d,ChIJR2H3eTFawokRb0FeIuvN0jw
24,Swiss Institute,"38 St Marks Pl, New York, NY 10003, USA",4.4,"art_gallery, point_of_interest, establishment",40.7284172,-73.9875484,5463cde1f17dc9b0dc0ed19a1b57325b0717bcc8,ChIJK9SLWolZwokRfLobp8up_mg
25,Postmasters Gallery,"54 Franklin St, New York, NY 10013, USA",4.6,"art_gallery, point_of_interest, establishment",40.71729699999999,-74.002709,bb9d592671ec856f4b4e7351f3348ed2e7cb99ea,ChIJO7j_kiBawokR_ZYBzw_UkyA
26,Apexart,"291 Church St, New York, NY 10013, USA",5.0,"point_of_interest, establishment",40.7190458,-74.0044688,825d228c8bcffe3b4e877afc5b385307a3dc99c1,ChIJi1gQm4pZwokRZbGY348g_r8
27,Museum of Biblical Art,"1865 Broadway, New York, NY 10023, USA",3.3,"museum, point_of_interest, establishment",40.77027280000001,-73.982804,faef65b55a9796fd7c5701db21e34e987e41bb09,ChIJn-Ah-fVYwokRQSdL1eSJzdU
