[{"rating": 4.5, "name": "Bronx Zoo", "geometry": {"location": {"lat": 40.8505949, "lng": -73.8769982}, "viewport": {"northeast": {"lat": 40.86110289999999, "lng": -73.86736774999999}, "southwest": {"lat": 40.83834530000001, "lng": -73.88760074999999}}}, "opening_hours": {"weekday_text": ["Monday: 10:00 AM \u2013 5:00 PM", "Tuesday: 10:00 AM \u2013 5:00 PM", "Wednesday: 10:00 AM \u2013 5:00 PM", "Thursday: 10:00 AM \u2013 5:00 PM", "Friday: 10:00 AM \u2013 5:00 PM", "Saturday: 10:00 AM \u2013 5:30 PM", "Sunday: 10:00 AM \u2013 5:30 PM"], "open_now": false, "periods": [{"close": {"day": 0, "time": "1730"}, "open": {"day": 0, "time": "1000"}}, {"close": {"day": 1, "time": "1700"}, "open": {"day": 1, "time": "1000"}}, {"close": {"day": 2, "time": "1700"}, "open": {"day": 2, "time": "1000"}}, {"close": {"day": 3, "time": "1700"}, "open": {"day": 3, "time": "1000"}}, {"close": {"day": 4, "time": "1700"}, "open": {"day": 4, "time": "1000"}}, {"close": {"day": 5, "time": "1700"}, "open": {"day": 5, "time": "1000"}}, {"close": {"day": 6, "time": "1730"}, "open": {"day": 6, "time": "1000"}}]}, "place_id": "ChIJi9JqUYP0wokRLhCVlxy0bgU", "formatted_phone_number": "(718) 367-1010", "formatted_address": "2300 Southern Blvd, Bronx, NY 10460, USA"}, {"rating": 4.3, "name": "Central Park Zoo", "geometry": {"location": {"lat": 40.767778, "lng": -73.9718335}, "viewport": {"northeast": {"lat": 40.7689385802915, "lng": -73.96989795}, "southwest": {"lat": 40.7662406197085, "lng": -73.97281374999999}}}, "opening_hours": {"weekday_text": ["Monday: 10:00 AM \u2013 5:00 PM", "Tuesday: 10:00 AM \u2013 5:00 PM", "Wednesday: 10:00 AM \u2013 5:00 PM", "Thursday: 10:00 AM \u2013 5:00 PM", "Friday: 10:00 AM \u2013 5:00 PM", "Saturday: 10:00 AM \u2013 5:30 PM", "Sunday: 10:00 AM \u2013 5:30 PM"], "open_now": false, "periods": [{"close": {"day": 0, "time": "1730"}, "open": {"day": 0, "time": "1000"}}, {"close": {"day": 1, "time": "1700"}, "open": {"day": 1, "time": "1000"}}, {"close": {"day": 2, "time": "1700"}, "open": {"day": 2, "time": "1000"}}, {"close": {"day": 3, "time": "1700"}, "open": {"day": 3, "time": "1000"}}, {"close": {"day": 4, "time": "1700"}, "open": {"day": 4, "time": "1000"}}, {"close": {"day": 5, "time": "1700"}, "open": {"day": 5, "time": "1000"}}, {"close": {"day": 6, "time": "1730"}, "open": {"day": 6, "time": "1000"}}]}, "place_id": "ChIJaWjW_PFYwokRFD8a2YQu12U", "formatted_phone_number": "(212) 439-6500", "formatted_address": "E 64th St, New York, NY 10021, USA"}, {"rating": 4.4, "name": "Queens Zoo", "geometry": {"location": {"lat": 40.7439678, "lng": -73.84924579999999}, "viewport": {"northeast": {"lat": 40.75050919999999, "lng": -73.8454016}, "southwest": {"lat": 40.73684040000001, "lng": -73.85513839999999}}}, "opening_hours": {"weekday_text": ["Monday: 10:00 AM \u2013 5:00 PM", "Tuesday: 10:00 AM \u2013 5:00 PM", "Wednesday: 10:00 AM \u2013 5:00 PM", "Thursday: 10:00 AM \u2013 5:00 PM", "Friday: 10:00 AM \u2013 5:00 PM", "Saturday: 10:00 AM \u2013 5:30 PM", "Sunday: 10:00 AM \u2013 5:30 PM"], "open_now": false, "periods": [{"close": {"day": 0, "time": "1730"}, "open": {"day": 0, "time": "1000"}}, {"close": {"day": 1, "time": "1700"}, "open": {"day": 1, "time": "1000"}}, {"close": {"day": 2, "time": "1700"}, "open": {"day": 2, "time": "1000"}}, {"close": {"day": 3, "time": "1700"}, "open": {"day": 3, "time": "1000"}}, {"close": {"day": 4, "time": "1700"}, "open": {"day": 4, "time": "1000"}}, {"close": {"day": 5, "time": "1700"}, "open": {"day": 5, "time": "1000"}}, {"close": {"day": 6, "time": "1730"}, "open": {"day": 6, "time": "1000"}}]}, "place_id": "ChIJr4Vyr9BfwokRwIj7AIr7bzE", "formatted_phone_number": "(718) 271-1500", "formatted_address": "53-51 111th Street Flushing, Corona, NY 11368, USA"}, {"rating": 4.4, "name": "Prospect Park Zoo", "geometry": {"location": {"lat": 40.6653747, "lng": -73.9654138}, "viewport": {"northeast": {"lat": 40.6668568802915, "lng": -73.96336629999999}, "southwest": {"lat": 40.6641589197085, "lng": -73.9669347}}}, "opening_hours": {"weekday_text": ["Monday: 10:00 AM \u2013 5:00 PM", "Tuesday: 10:00 AM \u2013 5:00 PM", "Wednesday: 10:00 AM \u2013 5:00 PM", "Thursday: 10:00 AM \u2013 5:00 PM", "Friday: 10:00 AM \u2013 5:00 PM", "Saturday: 10:00 AM \u2013 5:30 PM", "Sunday: 10:00 AM \u2013 5:30 PM"], "open_now": false, "periods": [{"close": {"day": 0, "time": "1730"}, "open": {"day": 0, "time": "1000"}}, {"close": {"day": 1, "time": "1700"}, "open": {"day": 1, "time": "1000"}}, {"close": {"day": 2, "time": "1700"}, "open": {"day": 2, "time": "1000"}}, {"close": {"day": 3, "time": "1700"}, "open": {"day": 3, "time": "1000"}}, {"close": {"day": 4, "time": "1700"}, "open": {"day": 4, "time": "1000"}}, {"close": {"day": 5, "time": "1700"}, "open": {"day": 5, "time": "1000"}}, {"close": {"day": 6, "time": "1730"}, "open": {"day": 6, "time": "1000"}}]}, "place_id": "ChIJnWjS-wRbwokRpCq5RGEIH3E", "formatted_phone_number": "(718) 399-7339", "formatted_address": "450 Flatbush Ave, Brooklyn, NY 11225, USA"}, {"rating": 4, "name": "New York Aquarium", "geometry": {"location": {"lat": 40.5742632, "lng": -73.9748754}, "viewport": {"northeast": {"lat": 40.5756073302915, "lng": -73.97412146970849}, "southwest": {"lat": 40.5729093697085, "lng": -73.9768194302915}}}, "opening_hours": {"weekday_text": ["Monday: 10:00 AM \u2013 5:00 PM", "Tuesday: 10:00 AM \u2013 5:00 PM", "Wednesday: 10:00 AM \u2013 5:00 PM", "Thursday: 10:00 AM \u2013 5:00 PM", "Friday: 10:00 AM \u2013 5:00 PM", "Saturday: 10:00 AM \u2013 5:30 PM", "Sunday: 10:00 AM \u2013 5:30 PM"], "open_now": false, "periods": [{"close": {"day": 0, "time": "1730"}, "open": {"day": 0, "time": "1000"}}, {"close": {"day": 1, "time": "1700"}, "open": {"day": 1, "time": "1000"}}, {"close": {"day": 2, "time": "1700"}, "open": {"day": 2, "time": "1000"}}, {"close": {"day": 3, "time": "1700"}, "open": {"day": 3, "time": "1000"}}, {"close": {"day": 4, "time": "1700"}, "open": {"day": 4, "time": "1000"}}, {"close": {"day": 5, "time": "1700"}, "open": {"day": 5, "time": "1000"}}, {"close": {"day": 6, "time": "1730"}, "open": {"day": 6, "time": "1000"}}]}, "place_id": "ChIJcRMeDzZEwokR3NsXUDpO9UU", "formatted_phone_number": "(718) 265-3474", "formatted_address": "602 Surf Ave, Brooklyn, NY 11224, USA"}, {"rating": 4.4, "name": "Staten Island Zoo", "geometry": {"location": {"lat": 40.62512399999999, "lng": -74.11537}, "viewport": {"northeast": {"lat": 40.62660578029149, "lng": -74.11358756970849}, "southwest": {"lat": 40.62390781970849, "lng": -74.1162855302915}}}, "opening_hours": {"weekday_text": ["Monday: 10:00 AM \u2013 4:45 PM", "Tuesday: 10:00 AM \u2013 4:45 PM", "Wednesday: 10:00 AM \u2013 4:45 PM", "Thursday: 10:00 AM \u2013 4:45 PM", "Friday: 10:00 AM \u2013 4:45 PM", "Saturday: 10:00 AM \u2013 4:45 PM", "Sunday: 10:00 AM \u2013 4:45 PM"], "open_now": false, "periods": [{"close": {"day": 0, "time": "1645"}, "open": {"day": 0, "time": "1000"}}, {"close": {"day": 1, "time": "1645"}, "open": {"day": 1, "time": "1000"}}, {"close": {"day": 2, "time": "1645"}, "open": {"day": 2, "time": "1000"}}, {"close": {"day": 3, "time": "1645"}, "open": {"day": 3, "time": "1000"}}, {"close": {"day": 4, "time": "1645"}, "open": {"day": 4, "time": "1000"}}, {"close": {"day": 5, "time": "1645"}, "open": {"day": 5, "time": "1000"}}, {"close": {"day": 6, "time": "1645"}, "open": {"day": 6, "time": "1000"}}]}, "place_id": "ChIJjfNxe3BOwokRJWFGqQueVFY", "formatted_phone_number": "(718) 442-3100", "formatted_address": "614 Broadway, Staten Island, NY 10310, USA"}]